{
    "Küchenholz": {
        "stauts": true,
        "lon": 11.196995,
        "lat": 51.6483271,
        "raw": {
            "place_id": 345321542,
            "licence": "Data © OpenStreetMap contributors, ODbL 1.0. https://osm.org/copyright",
            "osm_type": "node",
            "osm_id": 10092309392,
            "boundingbox": [
                "51.6383271",
                "51.6583271",
                "11.186995",
                "11.206995"
            ],
            "lat": "51.6483271",
            "lon": "11.196995",
            "display_name": "Küchenholz, Harzgerode, Schielo, Landkreis Harz, Sachsen-Anhalt, 06493, Deutschland",
            "class": "place",
            "type": "locality",
            "importance": 0.23500999999999997,
            "icon": "https://nominatim.openstreetmap.org/ui/mapicons/poi_place_village.p.20.png"
        }
    },
    "super": {
        "stauts": true,
        "lon": 12.721199,
        "lat": 54.3711861,
        "raw": {
            "place_id": 15468824,
            "licence": "Data © OpenStreetMap contributors, ODbL 1.0. https://osm.org/copyright",
            "osm_type": "node",
            "osm_id": 1692354523,
            "boundingbox": [
                "54.3711361",
                "54.3712361",
                "12.721149",
                "12.721249"
            ],
            "lat": "54.3711861",
            "lon": "12.721199",
            "display_name": "Barther Yachtservice - Diesel, Super, Vorpommern-Rügen, Mecklenburg-Vorpommern, 18356, Deutschland",
            "class": "waterway",
            "type": "fuel",
            "importance": 0.35
        }
    },
    "uns Haus": {
        "stauts": true,
        "lon": 8.939093914575718,
        "lat": 54.847387999999995,
        "raw": {
            "place_id": 353672435,
            "licence": "Data © OpenStreetMap contributors, ODbL 1.0. https://osm.org/copyright",
            "osm_type": "way",
            "osm_id": 1132447328,
            "boundingbox": [
                "54.8473694",
                "54.8474065",
                "8.9390607",
                "8.9391281"
            ],
            "lat": "54.847387999999995",
            "lon": "8.939093914575718",
            "display_name": "Haus \"Bi uns\", 3, Ochsenweg, Braderup, Südtondern, Nordfriesland, Schleswig-Holstein, 25923, Deutschland",
            "class": "tourism",
            "type": "chalet",
            "importance": 0.20000999999999997
        }
    },
    "shower + bath": {
        "stauts": false,
        "lon": 0.0,
        "lat": 0.0,
        "raw": {}
    },
    "reading the occasional book or going to the cinema/theatre": {
        "stauts": false,
        "lon": 0.0,
        "lat": 0.0,
        "raw": {}
    },
    "Connewitzer Kreuz": {
        "stauts": true,
        "lon": 12.3729618,
        "lat": 51.3115785,
        "raw": {
            "place_id": 296163644,
            "licence": "Data © OpenStreetMap contributors, ODbL 1.0. https://osm.org/copyright",
            "osm_type": "way",
            "osm_id": 1062887383,
            "boundingbox": [
                "51.3115785",
                "51.3115819",
                "12.3726158",
                "12.3729618"
            ],
            "lat": "51.3115785",
            "lon": "12.3729618",
            "display_name": "Connewitzer Kreuz, Scheffelstraße, Connewitz, Süd, Leipzig, Sachsen, 04277, Deutschland",
            "class": "highway",
            "type": "platform",
            "importance": 0.20000999999999997
        }
    },
    "Süd verbindetdich": {
        "stauts": false,
        "lon": 0.0,
        "lat": 0.0,
        "raw": {}
    },
    "CENTRE": {
        "stauts": true,
        "lon": 1.7324062,
        "lat": 47.5490251,
        "raw": {
            "place_id": 297901264,
            "licence": "Data © OpenStreetMap contributors, ODbL 1.0. https://osm.org/copyright",
            "osm_type": "relation",
            "osm_id": 8640,
            "boundingbox": [
                "46.3471572",
                "48.9410263",
                "0.0527585",
                "3.1286392"
            ],
            "lat": "47.5490251",
            "lon": "1.7324062",
            "display_name": "Centre-Val de Loire, France métropolitaine, France",
            "class": "boundary",
            "type": "administrative",
            "importance": 0.7515466878544753,
            "icon": "https://nominatim.openstreetmap.org/ui/mapicons/poi_boundary_administrative.p.20.png"
        }
    },
    "Lausen": {
        "stauts": true,
        "lon": 7.7591139,
        "lat": 47.4736459,
        "raw": {
            "place_id": 298315329,
            "licence": "Data © OpenStreetMap contributors, ODbL 1.0. https://osm.org/copyright",
            "osm_type": "relation",
            "osm_id": 1683666,
            "boundingbox": [
                "47.4554039",
                "47.486715",
                "7.7471671",
                "7.7854643"
            ],
            "lat": "47.4736459",
            "lon": "7.7591139",
            "display_name": "Lausen, Bezirk Liestal, Basel-Landschaft, 4415, Schweiz/Suisse/Svizzera/Svizra",
            "class": "boundary",
            "type": "administrative",
            "importance": 0.45987195748066745,
            "icon": "https://nominatim.openstreetmap.org/ui/mapicons/poi_boundary_administrative.p.20.png"
        }
    },
    "Naomi": {
        "stauts": true,
        "lon": -84.144115,
        "lat": 41.4861626,
        "raw": {
            "place_id": 398692,
            "licence": "Data © OpenStreetMap contributors, ODbL 1.0. https://osm.org/copyright",
            "osm_type": "node",
            "osm_id": 153997315,
            "boundingbox": [
                "41.4661626",
                "41.5061626",
                "-84.164115",
                "-84.124115"
            ],
            "lat": "41.4861626",
            "lon": "-84.144115",
            "display_name": "Naomi, Freedom Township, Henry County, Ohio, United States",
            "class": "place",
            "type": "hamlet",
            "importance": 0.37691348680426007,
            "icon": "https://nominatim.openstreetmap.org/ui/mapicons/poi_place_village.p.20.png"
        }
    },
    "Bretti": {
        "stauts": true,
        "lon": 151.9177789,
        "lat": -31.7816708,
        "raw": {
            "place_id": 299017268,
            "licence": "Data © OpenStreetMap contributors, ODbL 1.0. https://osm.org/copyright",
            "osm_type": "relation",
            "osm_id": 6063420,
            "boundingbox": [
                "-31.8607613",
                "-31.7324163",
                "151.8125908",
                "151.9742694"
            ],
            "lat": "-31.7816708",
            "lon": "151.9177789",
            "display_name": "Bretti, Mid-Coast Council, New South Wales, 2422, Australia",
            "class": "boundary",
            "type": "administrative",
            "importance": 0.41000000000000003,
            "icon": "https://nominatim.openstreetmap.org/ui/mapicons/poi_boundary_administrative.p.20.png"
        }
    },
    "Mietlast": {
        "stauts": false,
        "lon": 0.0,
        "lat": 0.0,
        "raw": {}
    },
    "Bars": {
        "stauts": true,
        "lon": 1.0633322,
        "lat": 45.0999478,
        "raw": {
            "place_id": 298549290,
            "licence": "Data © OpenStreetMap contributors, ODbL 1.0. https://osm.org/copyright",
            "osm_type": "relation",
            "osm_id": 3242585,
            "boundingbox": [
                "45.072804",
                "45.1170078",
                "0.9926305",
                "1.1052148"
            ],
            "lat": "45.0999478",
            "lon": "1.0633322",
            "display_name": "Bars, Sarlat-la-Canéda, Dordogne, Nouvelle-Aquitaine, France métropolitaine, 24210, France",
            "class": "boundary",
            "type": "administrative",
            "importance": 0.6511241523329778,
            "icon": "https://nominatim.openstreetmap.org/ui/mapicons/poi_boundary_administrative.p.20.png"
        }
    },
    "Leipzigund": {
        "stauts": false,
        "lon": 0.0,
        "lat": 0.0,
        "raw": {}
    },
    "Zoo für Kulturprogramm": {
        "stauts": false,
        "lon": 0.0,
        "lat": 0.0,
        "raw": {}
    },
    "Bus-Haltestelle": {
        "stauts": false,
        "lon": 0.0,
        "lat": 0.0,
        "raw": {}
    },
    "Neukölln": {
        "stauts": true,
        "lon": 13.4353501,
        "lat": 52.4811497,
        "raw": {
            "place_id": 298128621,
            "licence": "Data © OpenStreetMap contributors, ODbL 1.0. https://osm.org/copyright",
            "osm_type": "relation",
            "osm_id": 409213,
            "boundingbox": [
                "52.4587633",
                "52.495865",
                "13.4060789",
                "13.4785501"
            ],
            "lat": "52.4811497",
            "lon": "13.4353501",
            "display_name": "Neukölln, Berlin, Deutschland",
            "class": "boundary",
            "type": "administrative",
            "importance": 0.5926079189340346,
            "icon": "https://nominatim.openstreetmap.org/ui/mapicons/poi_boundary_administrative.p.20.png"
        }
    },
    "DE": {
        "stauts": true,
        "lon": 10.4478313,
        "lat": 51.1638175,
        "raw": {
            "place_id": 297939156,
            "licence": "Data © OpenStreetMap contributors, ODbL 1.0. https://osm.org/copyright",
            "osm_type": "relation",
            "osm_id": 51477,
            "boundingbox": [
                "47.2701114",
                "55.099161",
                "5.8663153",
                "15.0419309"
            ],
            "lat": "51.1638175",
            "lon": "10.4478313",
            "display_name": "Deutschland",
            "class": "boundary",
            "type": "administrative",
            "importance": 0.9896814891722548,
            "icon": "https://nominatim.openstreetmap.org/ui/mapicons/poi_boundary_administrative.p.20.png"
        }
    },
    "nebenan :)": {
        "stauts": true,
        "lon": 8.7808337,
        "lat": 53.0554312,
        "raw": {
            "place_id": 49807643,
            "licence": "Data © OpenStreetMap contributors, ODbL 1.0. https://osm.org/copyright",
            "osm_type": "node",
            "osm_id": 4413851463,
            "boundingbox": [
                "53.0553812",
                "53.0554812",
                "8.7807837",
                "8.7808837"
            ],
            "lat": "53.0554312",
            "lon": "8.7808337",
            "display_name": "nebenan, 2, Otto-Lilienthal-Straße, Neuenland, Neustadt, Bremen-Süd, Bremen, 28199, Deutschland",
            "class": "amenity",
            "type": "restaurant",
            "importance": 0.11000999999999997,
            "icon": "https://nominatim.openstreetmap.org/ui/mapicons/food_restaurant.p.20.png"
        }
    },
    "Jahnallee": {
        "stauts": true,
        "lon": 12.3645465,
        "lat": 51.3431225,
        "raw": {
            "place_id": 115418605,
            "licence": "Data © OpenStreetMap contributors, ODbL 1.0. https://osm.org/copyright",
            "osm_type": "way",
            "osm_id": 35168650,
            "boundingbox": [
                "51.3430802",
                "51.3431854",
                "12.3644159",
                "12.3647267"
            ],
            "lat": "51.3431225",
            "lon": "12.3645465",
            "display_name": "Jahnallee, Waldstraßenviertel, Zentrum-Nordwest, Mitte, Leipzig, Sachsen, 04109, Deutschland",
            "class": "highway",
            "type": "primary",
            "importance": 0.30050836296268335
        }
    },
    "Park Blütenzauber": {
        "stauts": true,
        "lon": 6.8196634,
        "lat": 50.684021,
        "raw": {
            "place_id": 57119892,
            "licence": "Data © OpenStreetMap contributors, ODbL 1.0. https://osm.org/copyright",
            "osm_type": "node",
            "osm_id": 5161270525,
            "boundingbox": [
                "50.683971",
                "50.684071",
                "6.8196134",
                "6.8197134"
            ],
            "lat": "50.684021",
            "lon": "6.8196634",
            "display_name": "Angi's Blütenzauber, 23, Großbüllesheimer Straße, Industrie-Park Am Silberberg, Großbüllesheim, Euskirchen, Kreis Euskirchen, Nordrhein-Westfalen, 53881, Deutschland",
            "class": "shop",
            "type": "florist",
            "importance": 0.2001
        }
    },
    "Karl-Liebknecht-Straße offers lot of bar and pubs": {
        "stauts": false,
        "lon": 0.0,
        "lat": 0.0,
        "raw": {}
    },
    "Lane": {
        "stauts": true,
        "lon": -100.4776682,
        "lat": 38.4651663,
        "raw": {
            "place_id": 298211587,
            "licence": "Data © OpenStreetMap contributors, ODbL 1.0. https://osm.org/copyright",
            "osm_type": "relation",
            "osm_id": 1070377,
            "boundingbox": [
                "38.2623015",
                "38.703697",
                "-100.688202",
                "-100.244421"
            ],
            "lat": "38.4651663",
            "lon": "-100.4776682",
            "display_name": "Lane County, Kansas, 67839, United States",
            "class": "boundary",
            "type": "administrative",
            "importance": 0.613688275330553,
            "icon": "https://nominatim.openstreetmap.org/ui/mapicons/poi_boundary_administrative.p.20.png"
        }
    },
    "a 65m² flat with 2": {
        "stauts": false,
        "lon": 0.0,
        "lat": 0.0,
        "raw": {}
    },
    "Markkleeberg See": {
        "stauts": true,
        "lon": 12.33385365488608,
        "lat": 51.26693425,
        "raw": {
            "place_id": 298072286,
            "licence": "Data © OpenStreetMap contributors, ODbL 1.0. https://osm.org/copyright",
            "osm_type": "relation",
            "osm_id": 285950,
            "boundingbox": [
                "51.2489158",
                "51.2850203",
                "12.3219817",
                "12.350568"
            ],
            "lat": "51.26693425",
            "lon": "12.33385365488608",
            "display_name": "Cospudener See, Südwest, Markkleeberg, Landkreis Leipzig, Sachsen, Deutschland",
            "class": "natural",
            "type": "water",
            "importance": 0.5235607691790297
        }
    },
    "Kleinzschocher": {
        "stauts": true,
        "lon": 12.3254713,
        "lat": 51.3137327,
        "raw": {
            "place_id": 352203237,
            "licence": "Data © OpenStreetMap contributors, ODbL 1.0. https://osm.org/copyright",
            "osm_type": "relation",
            "osm_id": 15069810,
            "boundingbox": [
                "51.3016826",
                "51.3209666",
                "12.3015202",
                "12.3434202"
            ],
            "lat": "51.3137327",
            "lon": "12.3254713",
            "display_name": "Kleinzschocher, Südwest, Leipzig, Sachsen, Deutschland",
            "class": "boundary",
            "type": "administrative",
            "importance": 0.38500999999999996,
            "icon": "https://nominatim.openstreetmap.org/ui/mapicons/poi_boundary_administrative.p.20.png"
        }
    },
    "Hetbst": {
        "stauts": false,
        "lon": 0.0,
        "lat": 0.0,
        "raw": {}
    },
    "Neue Messe": {
        "stauts": true,
        "lon": 9.5016674,
        "lat": 47.67682,
        "raw": {
            "place_id": 102296561,
            "licence": "Data © OpenStreetMap contributors, ODbL 1.0. https://osm.org/copyright",
            "osm_type": "way",
            "osm_id": 8022737,
            "boundingbox": [
                "47.6767273",
                "47.6768864",
                "9.5013101",
                "9.5018638"
            ],
            "lat": "47.67682",
            "lon": "9.5016674",
            "display_name": "Neue Messe, Allmannsweiler, Friedrichshafen, Verwaltungsgemeinschaft Friedrichshafen, Bodenseekreis, Baden-Württemberg, 88046, Deutschland",
            "class": "highway",
            "type": "unclassified",
            "importance": 0.3
        }
    },
    "Reudnitzcenter": {
        "stauts": false,
        "lon": 0.0,
        "lat": 0.0,
        "raw": {}
    },
    "Zentrum Nord": {
        "stauts": true,
        "lon": 12.3762329,
        "lat": 51.3530028,
        "raw": {
            "place_id": 298947236,
            "licence": "Data © OpenStreetMap contributors, ODbL 1.0. https://osm.org/copyright",
            "osm_type": "relation",
            "osm_id": 6273541,
            "boundingbox": [
                "51.3442405",
                "51.3614756",
                "12.3668934",
                "12.3857843"
            ],
            "lat": "51.3530028",
            "lon": "12.3762329",
            "display_name": "Zentrum-Nord, Mitte, Leipzig, Sachsen, Deutschland",
            "class": "boundary",
            "type": "administrative",
            "importance": 0.47501,
            "icon": "https://nominatim.openstreetmap.org/ui/mapicons/poi_boundary_administrative.p.20.png"
        }
    },
    "Zoro": {
        "stauts": true,
        "lon": 11.3725,
        "lat": 11.6841,
        "raw": {
            "place_id": 3863852,
            "licence": "Data © OpenStreetMap contributors, ODbL 1.0. https://osm.org/copyright",
            "osm_type": "node",
            "osm_id": 501430536,
            "boundingbox": [
                "11.6641",
                "11.7041",
                "11.3525",
                "11.3925"
            ],
            "lat": "11.6841",
            "lon": "11.3725",
            "display_name": "Zoro, Damagum B, Fune, Yobe, Nigeria",
            "class": "place",
            "type": "village",
            "importance": 0.385,
            "icon": "https://nominatim.openstreetmap.org/ui/mapicons/poi_place_village.p.20.png"
        }
    },
    "Leipziger Zoo": {
        "stauts": true,
        "lon": 13.7480858,
        "lat": 51.0727544,
        "raw": {
            "place_id": 35402950,
            "licence": "Data © OpenStreetMap contributors, ODbL 1.0. https://osm.org/copyright",
            "osm_type": "node",
            "osm_id": 2950906186,
            "boundingbox": [
                "51.0727044",
                "51.0728044",
                "13.7480358",
                "13.7481358"
            ],
            "lat": "51.0727544",
            "lon": "13.7480858",
            "display_name": "ZOO & Gartenbedarf | Blumen, 12, Rudolf-Leonhard-Straße, Scheunenhofviertel, Hechtviertel, Leipziger Vorstadt, Neustadt, Dresden, Sachsen, 01097, Deutschland",
            "class": "shop",
            "type": "florist",
            "importance": 0.20000999999999997
        }
    },
    "Beachvolleyballplätze": {
        "stauts": true,
        "lon": 14.163063943746504,
        "lat": 48.3010963,
        "raw": {
            "place_id": 115691002,
            "licence": "Data © OpenStreetMap contributors, ODbL 1.0. https://osm.org/copyright",
            "osm_type": "way",
            "osm_id": 37418321,
            "boundingbox": [
                "48.3009086",
                "48.3012794",
                "14.1627922",
                "14.1633449"
            ],
            "lat": "48.3010963",
            "lon": "14.163063943746504",
            "display_name": "Beachvolleyballplätze, Am Dorfplatz, Schönering, Edramsberg, Wilhering, Bezirk Linz-Land, 4073, Österreich",
            "class": "leisure",
            "type": "pitch",
            "importance": 0.11010000000000002
        }
    },
    "Straßenbahn 14": {
        "stauts": false,
        "lon": 0.0,
        "lat": 0.0,
        "raw": {}
    },
    "Clara-Zetkin-Park befindetsich": {
        "stauts": false,
        "lon": 0.0,
        "lat": 0.0,
        "raw": {}
    },
    "Backsteinwand": {
        "stauts": false,
        "lon": 0.0,
        "lat": 0.0,
        "raw": {}
    },
    "House and Garden as well as socially every now and than will BE a good fit": {
        "stauts": false,
        "lon": 0.0,
        "lat": 0.0,
        "raw": {}
    },
    "Thomaskirche": {
        "stauts": true,
        "lon": 12.372596539065963,
        "lat": 51.33933145,
        "raw": {
            "place_id": 117223488,
            "licence": "Data © OpenStreetMap contributors, ODbL 1.0. https://osm.org/copyright",
            "osm_type": "way",
            "osm_id": 41803555,
            "boundingbox": [
                "51.3391598",
                "51.3395019",
                "12.3720494",
                "12.373234"
            ],
            "lat": "51.33933145",
            "lon": "12.372596539065963",
            "display_name": "Thomaskirche, 18, Thomaskirchhof, Zentrum, Mitte, Leipzig, Sachsen, 04109, Deutschland",
            "class": "amenity",
            "type": "place_of_worship",
            "importance": 0.5379212940552578,
            "icon": "https://nominatim.openstreetmap.org/ui/mapicons/place_of_worship_unknown3.p.20.png"
        }
    },
    "Kopenhagen": {
        "stauts": true,
        "lon": 12.5700724,
        "lat": 55.6867243,
        "raw": {
            "place_id": 100975,
            "licence": "Data © OpenStreetMap contributors, ODbL 1.0. https://osm.org/copyright",
            "osm_type": "node",
            "osm_id": 13707878,
            "boundingbox": [
                "55.5267243",
                "55.8467243",
                "12.4100724",
                "12.7300724"
            ],
            "lat": "55.6867243",
            "lon": "12.5700724",
            "display_name": "København, Københavns Kommune, Region Hovedstaden, 1357, Danmark",
            "class": "place",
            "type": "city",
            "importance": 0.7199038383120139,
            "icon": "https://nominatim.openstreetmap.org/ui/mapicons/poi_place_city.p.20.png"
        }
    },
    "Leipziger-Ostennur": {
        "stauts": false,
        "lon": 0.0,
        "lat": 0.0,
        "raw": {}
    },
    "Karl-Heine-Str": {
        "stauts": true,
        "lon": 12.3487401,
        "lat": 51.3321577,
        "raw": {
            "place_id": 239132878,
            "licence": "Data © OpenStreetMap contributors, ODbL 1.0. https://osm.org/copyright",
            "osm_type": "way",
            "osm_id": 668639059,
            "boundingbox": [
                "51.3321572",
                "51.3321579",
                "12.3486969",
                "12.3488282"
            ],
            "lat": "51.3321577",
            "lon": "12.3487401",
            "display_name": "Karl-Heine-Straße, Plagwitz, Südwest, Leipzig, Sachsen, 04229, Deutschland",
            "class": "highway",
            "type": "secondary",
            "importance": 0.40001
        }
    },
    "Koli": {
        "stauts": true,
        "lon": 81.6349103,
        "lat": 29.2542367,
        "raw": {
            "place_id": 82371121,
            "licence": "Data © OpenStreetMap contributors, ODbL 1.0. https://osm.org/copyright",
            "osm_type": "node",
            "osm_id": 8310559008,
            "boundingbox": [
                "29.2342367",
                "29.2742367",
                "81.6149103",
                "81.6549103"
            ],
            "lat": "29.2542367",
            "lon": "81.6349103",
            "display_name": "Koli, Rāskot, कालीकोट, Karnali Pradesh, नेपाल",
            "class": "place",
            "type": "village",
            "importance": 0.38500999999999996,
            "icon": "https://nominatim.openstreetmap.org/ui/mapicons/poi_place_village.p.20.png"
        }
    },
    "Brühl": {
        "stauts": true,
        "lon": 6.9037057,
        "lat": 50.8291313,
        "raw": {
            "place_id": 298363574,
            "licence": "Data © OpenStreetMap contributors, ODbL 1.0. https://osm.org/copyright",
            "osm_type": "relation",
            "osm_id": 168481,
            "boundingbox": [
                "50.7848517",
                "50.8514325",
                "6.8334592",
                "6.943701"
            ],
            "lat": "50.8291313",
            "lon": "6.9037057",
            "display_name": "Brühl, Rhein-Erft-Kreis, Nordrhein-Westfalen, 50321, Deutschland",
            "class": "boundary",
            "type": "administrative",
            "importance": 0.5802836358825189,
            "icon": "https://nominatim.openstreetmap.org/ui/mapicons/poi_boundary_administrative.p.20.png"
        }
    },
    "Beiden": {
        "stauts": true,
        "lon": -119.7551443,
        "lat": 36.813283,
        "raw": {
            "place_id": 2680782,
            "licence": "Data © OpenStreetMap contributors, ODbL 1.0. https://osm.org/copyright",
            "osm_type": "node",
            "osm_id": 358833039,
            "boundingbox": [
                "36.813233",
                "36.813333",
                "-119.7551943",
                "-119.7550943"
            ],
            "lat": "36.813283",
            "lon": "-119.7551443",
            "display_name": "Beiden Field, Fresno, Fresno County, CAL Fire Southern Region, California, 93740, United States",
            "class": "leisure",
            "type": "park",
            "importance": 0.25000999999999995
        }
    },
    "Abtnaundorfer Park": {
        "stauts": true,
        "lon": 12.415390259374313,
        "lat": 51.36879815,
        "raw": {
            "place_id": 298813030,
            "licence": "Data © OpenStreetMap contributors, ODbL 1.0. https://osm.org/copyright",
            "osm_type": "relation",
            "osm_id": 5263491,
            "boundingbox": [
                "51.3656119",
                "51.3717275",
                "12.412768",
                "12.4189221"
            ],
            "lat": "51.36879815",
            "lon": "12.415390259374313",
            "display_name": "Abtnaundorfer Park, Schönefeld-Abtnaundorf, Nordost, Leipzig, Sachsen, Deutschland",
            "class": "leisure",
            "type": "park",
            "importance": 0.35001
        }
    },
    "undGalerien": {
        "stauts": false,
        "lon": 0.0,
        "lat": 0.0,
        "raw": {}
    },
    "where you can relax and enjoy the blooming trees": {
        "stauts": false,
        "lon": 0.0,
        "lat": 0.0,
        "raw": {}
    },
    "Hermann Park": {
        "stauts": true,
        "lon": -95.38856266833646,
        "lat": 29.7148444,
        "raw": {
            "place_id": 119554953,
            "licence": "Data © OpenStreetMap contributors, ODbL 1.0. https://osm.org/copyright",
            "osm_type": "way",
            "osm_id": 51816625,
            "boundingbox": [
                "29.7059038",
                "29.7238254",
                "-95.3966061",
                "-95.3811671"
            ],
            "lat": "29.7148444",
            "lon": "-95.38856266833646",
            "display_name": "Hermann Park, Houston, Harris County, Texas, 77004, United States",
            "class": "leisure",
            "type": "park",
            "importance": 0.5710901156981629
        }
    },
    "Jahnallee-Kampus": {
        "stauts": false,
        "lon": 0.0,
        "lat": 0.0,
        "raw": {}
    },
    "WG-gesucht": {
        "stauts": false,
        "lon": 0.0,
        "lat": 0.0,
        "raw": {}
    },
    "Süd": {
        "stauts": true,
        "lon": 11.4860732,
        "lat": 2.7497556,
        "raw": {
            "place_id": 298481396,
            "licence": "Data © OpenStreetMap contributors, ODbL 1.0. https://osm.org/copyright",
            "osm_type": "relation",
            "osm_id": 2750833,
            "boundingbox": [
                "2.1431671",
                "3.6830439",
                "9.5892515",
                "13.6797754"
            ],
            "lat": "2.7497556",
            "lon": "11.4860732",
            "display_name": "Sud, Cameroun",
            "class": "boundary",
            "type": "administrative",
            "importance": 0.5500099999999999,
            "icon": "https://nominatim.openstreetmap.org/ui/mapicons/poi_boundary_administrative.p.20.png"
        }
    },
    "Leuschner Platz": {
        "stauts": true,
        "lon": 9.0275397,
        "lat": 50.0286695,
        "raw": {
            "place_id": 163320260,
            "licence": "Data © OpenStreetMap contributors, ODbL 1.0. https://osm.org/copyright",
            "osm_type": "way",
            "osm_id": 234467208,
            "boundingbox": [
                "50.0286521",
                "50.028681",
                "9.0272603",
                "9.0279618"
            ],
            "lat": "50.0286695",
            "lon": "9.0275397",
            "display_name": "Leuschnerplatz, Mainflingen, Mainhausen, Landkreis Offenbach, Hessen, 63791, Deutschland",
            "class": "highway",
            "type": "residential",
            "importance": 0.30000999999999994
        }
    },
    "Vollzeitjobgedöhns": {
        "stauts": false,
        "lon": 0.0,
        "lat": 0.0,
        "raw": {}
    },
    "Völki": {
        "stauts": true,
        "lon": 48.3507124,
        "lat": 58.1489727,
        "raw": {
            "place_id": 140217951,
            "licence": "Data © OpenStreetMap contributors, ODbL 1.0. https://osm.org/copyright",
            "osm_type": "way",
            "osm_id": 147845800,
            "boundingbox": [
                "58.1473733",
                "58.1501753",
                "48.3478829",
                "48.3525042"
            ],
            "lat": "58.1489727",
            "lon": "48.3507124",
            "display_name": "Волки, Вишкильское сельское поселение, Котельничский район, Кировская область, Приволжский федеральный округ, 612634, Россия",
            "class": "place",
            "type": "hamlet",
            "importance": 0.3393067919005157,
            "icon": "https://nominatim.openstreetmap.org/ui/mapicons/poi_place_village.p.20.png"
        }
    },
    "Kroatien": {
        "stauts": true,
        "lon": 15.6575209,
        "lat": 45.3658443,
        "raw": {
            "place_id": 298375341,
            "licence": "Data © OpenStreetMap contributors, ODbL 1.0. https://osm.org/copyright",
            "osm_type": "relation",
            "osm_id": 214885,
            "boundingbox": [
                "42.1765993",
                "46.555029",
                "13.2104814",
                "19.4472713"
            ],
            "lat": "45.3658443",
            "lon": "15.6575209",
            "display_name": "Hrvatska",
            "class": "boundary",
            "type": "administrative",
            "importance": 0.7836857430278734,
            "icon": "https://nominatim.openstreetmap.org/ui/mapicons/poi_boundary_administrative.p.20.png"
        }
    },
    "Sport-Uni": {
        "stauts": true,
        "lon": 11.190114044137436,
        "lat": 48.88878705,
        "raw": {
            "place_id": 172349661,
            "licence": "Data © OpenStreetMap contributors, ODbL 1.0. https://osm.org/copyright",
            "osm_type": "way",
            "osm_id": 273360294,
            "boundingbox": [
                "48.887669",
                "48.8901436",
                "11.1876701",
                "11.1910068"
            ],
            "lat": "48.88878705",
            "lon": "11.190114044137436",
            "display_name": "Katholische Universität Eichstätt-Ingolstadt, Am Sportplatz, Rosental, Eichstätt, Landkreis Eichstätt, Bayern, 85072, Deutschland",
            "class": "amenity",
            "type": "university",
            "importance": 0.6183511728282176,
            "icon": "https://nominatim.openstreetmap.org/ui/mapicons/education_university.p.20.png"
        }
    },
    "Halle": {
        "stauts": true,
        "lon": 11.9705452,
        "lat": 51.4825041,
        "raw": {
            "place_id": 297923841,
            "licence": "Data © OpenStreetMap contributors, ODbL 1.0. https://osm.org/copyright",
            "osm_type": "relation",
            "osm_id": 62638,
            "boundingbox": [
                "51.4021008",
                "51.5435116",
                "11.8552541",
                "12.0892171"
            ],
            "lat": "51.4825041",
            "lon": "11.9705452",
            "display_name": "Halle (Saale), Sachsen-Anhalt, Deutschland",
            "class": "boundary",
            "type": "administrative",
            "importance": 0.7128137048585335,
            "icon": "https://nominatim.openstreetmap.org/ui/mapicons/poi_boundary_administrative.p.20.png"
        }
    },
    "Older": {
        "stauts": true,
        "lon": -122.0614841834471,
        "lat": 37.2892875,
        "raw": {
            "place_id": 298042366,
            "licence": "Data © OpenStreetMap contributors, ODbL 1.0. https://osm.org/copyright",
            "osm_type": "relation",
            "osm_id": 192089,
            "boundingbox": [
                "37.2788082",
                "37.3003392",
                "-122.0776677",
                "-122.0495155"
            ],
            "lat": "37.2892875",
            "lon": "-122.0614841834471",
            "display_name": "Fremont Older Open Space Preserve, Cupertino, Santa Clara County, California, United States",
            "class": "boundary",
            "type": "protected_area",
            "importance": 0.38258254675527703
        }
    },
    "Leipziger Himmel": {
        "stauts": false,
        "lon": 0.0,
        "lat": 0.0,
        "raw": {}
    },
    "Swerfs": {
        "stauts": false,
        "lon": 0.0,
        "lat": 0.0,
        "raw": {}
    },
    "Oper": {
        "stauts": true,
        "lon": 16.36919341159496,
        "lat": 48.203285949999994,
        "raw": {
            "place_id": 102757212,
            "licence": "Data © OpenStreetMap contributors, ODbL 1.0. https://osm.org/copyright",
            "osm_type": "way",
            "osm_id": 8097595,
            "boundingbox": [
                "48.2026929",
                "48.2038545",
                "16.3684546",
                "16.3699666"
            ],
            "lat": "48.203285949999994",
            "lon": "16.36919341159496",
            "display_name": "Wiener Staatsoper, 2, Opernring, Kärntner Viertel, Innere Stadt, Wien, 1010, Österreich",
            "class": "tourism",
            "type": "attraction",
            "importance": 0.6489891784802604,
            "icon": "https://nominatim.openstreetmap.org/ui/mapicons/poi_point_of_interest.p.20.png"
        }
    },
    "Tram 7": {
        "stauts": true,
        "lon": -2.6954094707839604,
        "lat": 53.73933085,
        "raw": {
            "place_id": 283491098,
            "licence": "Data © OpenStreetMap contributors, ODbL 1.0. https://osm.org/copyright",
            "osm_type": "way",
            "osm_id": 934759627,
            "boundingbox": [
                "53.7392465",
                "53.7394162",
                "-2.6954971",
                "-2.6952334"
            ],
            "lat": "53.73933085",
            "lon": "-2.6954094707839604",
            "display_name": "7, Old Tram Road, Walton Park, Penwortham, Preston, Lancashire, England, PR1 9TY, United Kingdom",
            "class": "building",
            "type": "detached",
            "importance": 0.2101
        }
    },
    "Duschbadewanne": {
        "stauts": false,
        "lon": 0.0,
        "lat": 0.0,
        "raw": {}
    },
    "Eutritzscher Zentrum": {
        "stauts": true,
        "lon": 12.3827593,
        "lat": 51.3637096,
        "raw": {
            "place_id": 23864636,
            "licence": "Data © OpenStreetMap contributors, ODbL 1.0. https://osm.org/copyright",
            "osm_type": "node",
            "osm_id": 2612313608,
            "boundingbox": [
                "51.3636596",
                "51.3637596",
                "12.3827093",
                "12.3828093"
            ],
            "lat": "51.3637096",
            "lon": "12.3827593",
            "display_name": "Eutritzscher Zentrum, Delitzscher Straße, Meyer'sche Häuser Eutritzsch, Eutritzsch, Nord, Leipzig, Sachsen, 04129, Deutschland",
            "class": "amenity",
            "type": "car_sharing",
            "importance": 0.2001
        }
    },
    "Erde": {
        "stauts": true,
        "lon": 5.4980051,
        "lat": 51.6034376,
        "raw": {
            "place_id": 187424,
            "licence": "Data © OpenStreetMap contributors, ODbL 1.0. https://osm.org/copyright",
            "osm_type": "node",
            "osm_id": 43202742,
            "boundingbox": [
                "51.5834376",
                "51.6234376",
                "5.4780051",
                "5.5180051"
            ],
            "lat": "51.6034376",
            "lon": "5.4980051",
            "display_name": "Eerde, Veghel, Meierijstad, Noord-Brabant, Nederland, 5466 PE, Nederland",
            "class": "place",
            "type": "village",
            "importance": 0.41003795898974826,
            "icon": "https://nominatim.openstreetmap.org/ui/mapicons/poi_place_village.p.20.png"
        }
    },
    "sticks": {
        "stauts": true,
        "lon": -76.8041419,
        "lat": 39.7470469,
        "raw": {
            "place_id": 439163,
            "licence": "Data © OpenStreetMap contributors, ODbL 1.0. https://osm.org/copyright",
            "osm_type": "node",
            "osm_id": 158289823,
            "boundingbox": [
                "39.7270469",
                "39.7670469",
                "-76.8241419",
                "-76.7841419"
            ],
            "lat": "39.7470469",
            "lon": "-76.8041419",
            "display_name": "Sticks, Codorus Township, York County, Pennsylvania, 21088, United States",
            "class": "place",
            "type": "hamlet",
            "importance": 0.35,
            "icon": "https://nominatim.openstreetmap.org/ui/mapicons/poi_place_village.p.20.png"
        }
    },
    "Nette": {
        "stauts": true,
        "lon": 7.3939941,
        "lat": 51.5620455,
        "raw": {
            "place_id": 3107283,
            "licence": "Data © OpenStreetMap contributors, ODbL 1.0. https://osm.org/copyright",
            "osm_type": "node",
            "osm_id": 392710174,
            "boundingbox": [
                "51.5420455",
                "51.5820455",
                "7.3739941",
                "7.4139941"
            ],
            "lat": "51.5620455",
            "lon": "7.3939941",
            "display_name": "Nette, Mengede, Dortmund, Nordrhein-Westfalen, 44359, Deutschland",
            "class": "place",
            "type": "suburb",
            "importance": 0.4531904322993817,
            "icon": "https://nominatim.openstreetmap.org/ui/mapicons/poi_place_village.p.20.png"
        }
    },
    "Georg Schwarz Straße": {
        "stauts": true,
        "lon": 12.3025114,
        "lat": 51.3536062,
        "raw": {
            "place_id": 109970702,
            "licence": "Data © OpenStreetMap contributors, ODbL 1.0. https://osm.org/copyright",
            "osm_type": "way",
            "osm_id": 22737822,
            "boundingbox": [
                "51.3536062",
                "51.3536973",
                "12.3023911",
                "12.3025114"
            ],
            "lat": "51.3536062",
            "lon": "12.3025114",
            "display_name": "Georg-Schwarz-Straße, Barneck, Böhlitz-Ehrenberg, Altwest, Leipzig, Sachsen, 04179, Deutschland",
            "class": "highway",
            "type": "secondary",
            "importance": 0.48463416789672
        }
    },
    "herrlichst": {
        "stauts": false,
        "lon": 0.0,
        "lat": 0.0,
        "raw": {}
    },
    "!  ": {
        "stauts": false,
        "lon": 0.0,
        "lat": 0.0,
        "raw": {}
    },
    "ebenddazu": {
        "stauts": false,
        "lon": 0.0,
        "lat": 0.0,
        "raw": {}
    },
    "coole Spazierstrecken": {
        "stauts": false,
        "lon": 0.0,
        "lat": 0.0,
        "raw": {}
    },
    "Barcelona": {
        "stauts": true,
        "lon": 2.1774322,
        "lat": 41.3828939,
        "raw": {
            "place_id": 298429093,
            "licence": "Data © OpenStreetMap contributors, ODbL 1.0. https://osm.org/copyright",
            "osm_type": "relation",
            "osm_id": 347950,
            "boundingbox": [
                "41.3170353",
                "41.4679135",
                "2.0524977",
                "2.2283555"
            ],
            "lat": "41.3828939",
            "lon": "2.1774322",
            "display_name": "Barcelona, Barcelonès, Barcelona, Catalunya, 08001, España",
            "class": "boundary",
            "type": "administrative",
            "importance": 0.8535649969503182,
            "icon": "https://nominatim.openstreetmap.org/ui/mapicons/poi_boundary_administrative.p.20.png"
        }
    },
    "https://www.youtube.com/watch?v=zGxL2uNr7bk": {
        "stauts": false,
        "lon": 0.0,
        "lat": 0.0,
        "raw": {}
    },
    "Plagwitz district": {
        "stauts": false,
        "lon": 0.0,
        "lat": 0.0,
        "raw": {}
    },
    "Albrecht-Dürer-Platz": {
        "stauts": true,
        "lon": 12.37770201616014,
        "lat": 51.32361665,
        "raw": {
            "place_id": 101294008,
            "licence": "Data © OpenStreetMap contributors, ODbL 1.0. https://osm.org/copyright",
            "osm_type": "way",
            "osm_id": 7393449,
            "boundingbox": [
                "51.3231488",
                "51.3241445",
                "12.3769859",
                "12.3784393"
            ],
            "lat": "51.32361665",
            "lon": "12.37770201616014",
            "display_name": "Albrecht-Dürer-Platz, Südvorstadt, Süd, Leipzig, Sachsen, 04275, Deutschland",
            "class": "leisure",
            "type": "park",
            "importance": 0.45001
        }
    },
    "Lenepark": {
        "stauts": false,
        "lon": 0.0,
        "lat": 0.0,
        "raw": {}
    },
    "Leipziger Zentrum-Süd": {
        "stauts": true,
        "lon": 12.3750343,
        "lat": 51.3321993,
        "raw": {
            "place_id": 98085458,
            "licence": "Data © OpenStreetMap contributors, ODbL 1.0. https://osm.org/copyright",
            "osm_type": "node",
            "osm_id": 9573745305,
            "boundingbox": [
                "51.3321493",
                "51.3322493",
                "12.3749843",
                "12.3750843"
            ],
            "lat": "51.3321993",
            "lon": "12.3750343",
            "display_name": "Leipziger Volkszeitung, 19, Peterssteinweg, Zentrum-Süd, Mitte, Leipzig, Sachsen, 04107, Deutschland",
            "class": "office",
            "type": "newspaper",
            "importance": 0.7383498055403036
        }
    },
    "Arthur-Brettschneider-Park": {
        "stauts": false,
        "lon": 0.0,
        "lat": 0.0,
        "raw": {}
    },
    "Eisioder Lene-Park": {
        "stauts": false,
        "lon": 0.0,
        "lat": 0.0,
        "raw": {}
    },
    "Nordplatz": {
        "stauts": true,
        "lon": 12.374109459981874,
        "lat": 51.3522109,
        "raw": {
            "place_id": 116977516,
            "licence": "Data © OpenStreetMap contributors, ODbL 1.0. https://osm.org/copyright",
            "osm_type": "way",
            "osm_id": 40861890,
            "boundingbox": [
                "51.351734",
                "51.3524787",
                "12.3734926",
                "12.3747247"
            ],
            "lat": "51.3522109",
            "lon": "12.374109459981874",
            "display_name": "Nordplatz, Zentrum-Nord, Mitte, Leipzig, Sachsen, Deutschland",
            "class": "leisure",
            "type": "park",
            "importance": 0.26000999999999996
        }
    },
    "Verro": {
        "stauts": true,
        "lon": 15.3461129,
        "lat": -4.3301126,
        "raw": {
            "place_id": 65735512,
            "licence": "Data © OpenStreetMap contributors, ODbL 1.0. https://osm.org/copyright",
            "osm_type": "node",
            "osm_id": 6044086926,
            "boundingbox": [
                "-4.3301626",
                "-4.3300626",
                "15.3460629",
                "15.3461629"
            ],
            "lat": "-4.3301126",
            "lon": "15.3461129",
            "display_name": "Verro, Avenue Kingabwa, Kingabwa Pêcheur, Kingabwa, Limete, Kinshasa, République démocratique du Congo",
            "class": "amenity",
            "type": "pharmacy",
            "importance": 0.11010000000000002,
            "icon": "https://nominatim.openstreetmap.org/ui/mapicons/health_pharmacy_dispensing.p.20.png"
        }
    },
    "Buslinien 70": {
        "stauts": false,
        "lon": 0.0,
        "lat": 0.0,
        "raw": {}
    },
    "dining room": {
        "stauts": true,
        "lon": -122.03425525104444,
        "lat": 37.063726700000004,
        "raw": {
            "place_id": 130504369,
            "licence": "Data © OpenStreetMap contributors, ODbL 1.0. https://osm.org/copyright",
            "osm_type": "way",
            "osm_id": 112283054,
            "boundingbox": [
                "37.0636078",
                "37.063873",
                "-122.0344136",
                "-122.0340969"
            ],
            "lat": "37.063726700000004",
            "lon": "-122.03425525104444",
            "display_name": "Dining Room, Cathedral Drive, Mission Springs, Santa Cruz County, CAL Fire Northern Region, California, 95066, United States",
            "class": "building",
            "type": "yes",
            "importance": 0.20000999999999997
        }
    },
    "Coswig": {
        "stauts": true,
        "lon": 13.5783983,
        "lat": 51.1267305,
        "raw": {
            "place_id": 298396968,
            "licence": "Data © OpenStreetMap contributors, ODbL 1.0. https://osm.org/copyright",
            "osm_type": "relation",
            "osm_id": 207975,
            "boundingbox": [
                "51.1047889",
                "51.1614579",
                "13.4994225",
                "13.6554167"
            ],
            "lat": "51.1267305",
            "lon": "13.5783983",
            "display_name": "Coswig, Meißen, Sachsen, 01640, Deutschland",
            "class": "boundary",
            "type": "administrative",
            "importance": 0.5411093878774799,
            "icon": "https://nominatim.openstreetmap.org/ui/mapicons/poi_boundary_administrative.p.20.png"
        }
    },
    "S-Bahnhof": {
        "stauts": true,
        "lon": 12.3770952,
        "lat": 51.2620574,
        "raw": {
            "place_id": 1178428,
            "licence": "Data © OpenStreetMap contributors, ODbL 1.0. https://osm.org/copyright",
            "osm_type": "node",
            "osm_id": 308685936,
            "boundingbox": [
                "51.2620074",
                "51.2621074",
                "12.3770452",
                "12.3771452"
            ],
            "lat": "51.2620574",
            "lon": "12.3770952",
            "display_name": "Großstädteln, S-Bahnhof, Zöbigkerstraße, Großstädteln, Markkleeberg, Landkreis Leipzig, Sachsen, 04416, Deutschland",
            "class": "highway",
            "type": "bus_stop",
            "importance": 0.2001,
            "icon": "https://nominatim.openstreetmap.org/ui/mapicons/transport_bus_stop2.p.20.png"
        }
    },
    "Verdunklungsrollos": {
        "stauts": false,
        "lon": 0.0,
        "lat": 0.0,
        "raw": {}
    },
    "Linie 15": {
        "stauts": true,
        "lon": 9.9944162,
        "lat": 49.7710012,
        "raw": {
            "place_id": 3433041,
            "licence": "Data © OpenStreetMap contributors, ODbL 1.0. https://osm.org/copyright",
            "osm_type": "node",
            "osm_id": 432456540,
            "boundingbox": [
                "49.7709512",
                "49.7710512",
                "9.9943662",
                "9.9944662"
            ],
            "lat": "49.7710012",
            "lon": "9.9944162",
            "display_name": "Carl-Vornberger-Straße, Gerbrunner Straße, Randersacker, Landkreis Würzburg, Bayern, 97236, Deutschland",
            "class": "highway",
            "type": "bus_stop",
            "importance": 0.0001,
            "icon": "https://nominatim.openstreetmap.org/ui/mapicons/transport_bus_stop2.p.20.png"
        }
    },
    "Eck": {
        "stauts": true,
        "lon": 8.7937039,
        "lat": 47.9405539,
        "raw": {
            "place_id": 99337546,
            "licence": "Data © OpenStreetMap contributors, ODbL 1.0. https://osm.org/copyright",
            "osm_type": "node",
            "osm_id": 9720042515,
            "boundingbox": [
                "46.9405539",
                "48.9405539",
                "7.7937039",
                "9.7937039"
            ],
            "lat": "47.9405539",
            "lon": "8.7937039",
            "display_name": "Eck, Baden-Württemberg, 78532, Deutschland",
            "class": "place",
            "type": "region",
            "importance": 0.61
        }
    },
    "Leipzig-Sellerhausen": {
        "stauts": true,
        "lon": 12.4248812,
        "lat": 51.3451168,
        "raw": {
            "place_id": 15674294,
            "licence": "Data © OpenStreetMap contributors, ODbL 1.0. https://osm.org/copyright",
            "osm_type": "node",
            "osm_id": 1738630594,
            "boundingbox": [
                "51.3450668",
                "51.3451668",
                "12.4248312",
                "12.4249312"
            ],
            "lat": "51.3451168",
            "lon": "12.4248812",
            "display_name": "Leipzig-Sellerhausen, Eisenbahnstraße, Sellerhausen, Sellerhausen-Stünz, Ost, Leipzig, Sachsen, 04315, Deutschland",
            "class": "railway",
            "type": "stop",
            "importance": 0.22000999999999998
        }
    },
    "Albertina-Bibliothek": {
        "stauts": false,
        "lon": 0.0,
        "lat": 0.0,
        "raw": {}
    },
    "there are many nice pubs and bars as well as restaurants and cafes": {
        "stauts": false,
        "lon": 0.0,
        "lat": 0.0,
        "raw": {}
    },
    "Linie 90": {
        "stauts": true,
        "lon": 4.4584188,
        "lat": 51.983961,
        "raw": {
            "place_id": 136131431,
            "licence": "Data © OpenStreetMap contributors, ODbL 1.0. https://osm.org/copyright",
            "osm_type": "way",
            "osm_id": 129039240,
            "boundingbox": [
                "51.983961",
                "51.9844597",
                "4.4584188",
                "4.4599971"
            ],
            "lat": "51.983961",
            "lon": "4.4584188",
            "display_name": "Linie, Bolwerk, Berkel en Rodenrijs, Lansingerland, Zuid-Holland, Nederland, 2652 HC, Nederland",
            "class": "highway",
            "type": "residential",
            "importance": 0.21000999999999995
        }
    },
    "Nk": {
        "stauts": true,
        "lon": -51.7359356,
        "lat": 64.1766835,
        "raw": {
            "place_id": 9392622,
            "licence": "Data © OpenStreetMap contributors, ODbL 1.0. https://osm.org/copyright",
            "osm_type": "node",
            "osm_id": 992046822,
            "boundingbox": [
                "64.0166835",
                "64.3366835",
                "-51.8959356",
                "-51.5759356"
            ],
            "lat": "64.1766835",
            "lon": "-51.7359356",
            "display_name": "Nuuk, Sermersooq, 3900, Kalaallit Nunaat",
            "class": "place",
            "type": "city",
            "importance": 0.5766858571757796,
            "icon": "https://nominatim.openstreetmap.org/ui/mapicons/poi_place_city.p.20.png"
        }
    },
    "Antonienstraße": {
        "stauts": true,
        "lon": 13.3152584,
        "lat": 52.5778089,
        "raw": {
            "place_id": 266383052,
            "licence": "Data © OpenStreetMap contributors, ODbL 1.0. https://osm.org/copyright",
            "osm_type": "way",
            "osm_id": 831268563,
            "boundingbox": [
                "52.5777136",
                "52.5778888",
                "13.3151539",
                "13.3153695"
            ],
            "lat": "52.5778089",
            "lon": "13.3152584",
            "display_name": "Antonienstraße, Holzhauser Markt, Borsigwalde, Reinickendorf, Berlin, 13509, Deutschland",
            "class": "highway",
            "type": "secondary",
            "importance": 0.21000999999999995
        }
    },
    "Nebenkostenvorauszahlung": {
        "stauts": false,
        "lon": 0.0,
        "lat": 0.0,
        "raw": {}
    },
    "Könneritzstraße": {
        "stauts": true,
        "lon": 13.7287637,
        "lat": 51.0592103,
        "raw": {
            "place_id": 213319641,
            "licence": "Data © OpenStreetMap contributors, ODbL 1.0. https://osm.org/copyright",
            "osm_type": "way",
            "osm_id": 488766984,
            "boundingbox": [
                "51.0591131",
                "51.0592103",
                "13.7286935",
                "13.7287637"
            ],
            "lat": "51.0592103",
            "lon": "13.7287637",
            "display_name": "Könneritzstraße, Wilsdruffer Vorstadt/Seevorstadt-West, Wilsdruffer Vorstadt, Altstadt, Dresden, Sachsen, 01067, Deutschland",
            "class": "highway",
            "type": "primary",
            "importance": 0.3291246316339034
        }
    },
    "Rosental": {
        "stauts": true,
        "lon": 11.19973,
        "lat": 50.5799087,
        "raw": {
            "place_id": 224545047,
            "licence": "Data © OpenStreetMap contributors, ODbL 1.0. https://osm.org/copyright",
            "osm_type": "way",
            "osm_id": 565005359,
            "boundingbox": [
                "50.5790068",
                "50.5820261",
                "11.1962593",
                "11.20478"
            ],
            "lat": "50.5799087",
            "lon": "11.19973",
            "display_name": "Rosental, Meura, Schwarzatal, Landkreis Saalfeld-Rudolstadt, Thüringen, 98744, Deutschland",
            "class": "place",
            "type": "region",
            "importance": 0.61
        }
    },
    "Kanalzugang": {
        "stauts": false,
        "lon": 0.0,
        "lat": 0.0,
        "raw": {}
    },
    "Mensa": {
        "stauts": true,
        "lon": 12.224394,
        "lat": 44.2242784,
        "raw": {
            "place_id": 1223040,
            "licence": "Data © OpenStreetMap contributors, ODbL 1.0. https://osm.org/copyright",
            "osm_type": "node",
            "osm_id": 315519331,
            "boundingbox": [
                "44.2042784",
                "44.2442784",
                "12.204394",
                "12.244394"
            ],
            "lat": "44.2242784",
            "lon": "12.224394",
            "display_name": "Mensa, Ravenna, Emilia-Romagna, Italia",
            "class": "place",
            "type": "hamlet",
            "importance": 0.45750532678408906,
            "icon": "https://nominatim.openstreetmap.org/ui/mapicons/poi_place_village.p.20.png"
        }
    },
    "Stadt": {
        "stauts": true,
        "lon": 12.7584066,
        "lat": 54.0946272,
        "raw": {
            "place_id": 298191546,
            "licence": "Data © OpenStreetMap contributors, ODbL 1.0. https://osm.org/copyright",
            "osm_type": "relation",
            "osm_id": 372880,
            "boundingbox": [
                "54.053881",
                "54.133958",
                "12.697487",
                "12.865181"
            ],
            "lat": "54.0946272",
            "lon": "12.7584066",
            "display_name": "Tribsees, Recknitz-Trebeltal, Vorpommern-Rügen, Mecklenburg-Vorpommern, 18465, Deutschland",
            "class": "boundary",
            "type": "administrative",
            "importance": 0.4485568167361954,
            "icon": "https://nominatim.openstreetmap.org/ui/mapicons/poi_boundary_administrative.p.20.png"
        }
    },
    "Bayrischen Platz": {
        "stauts": true,
        "lon": 11.3520793,
        "lat": 49.0457907,
        "raw": {
            "place_id": 18255393,
            "licence": "Data © OpenStreetMap contributors, ODbL 1.0. https://osm.org/copyright",
            "osm_type": "node",
            "osm_id": 2066029555,
            "boundingbox": [
                "49.0457407",
                "49.0458407",
                "11.3520293",
                "11.3521293"
            ],
            "lat": "49.0457907",
            "lon": "11.3520793",
            "display_name": "Gasthof zum Bayrischen, 7, Marktplatz, Greding, Landkreis Roth, Bayern, 91171, Deutschland",
            "class": "amenity",
            "type": "restaurant",
            "importance": 0.2001,
            "icon": "https://nominatim.openstreetmap.org/ui/mapicons/food_restaurant.p.20.png"
        }
    },
    "Du läufst": {
        "stauts": false,
        "lon": 0.0,
        "lat": 0.0,
        "raw": {}
    },
    "Mäggels": {
        "stauts": false,
        "lon": 0.0,
        "lat": 0.0,
        "raw": {}
    },
    "Johannisallee": {
        "stauts": true,
        "lon": 12.3944677,
        "lat": 51.3318358,
        "raw": {
            "place_id": 118029995,
            "licence": "Data © OpenStreetMap contributors, ODbL 1.0. https://osm.org/copyright",
            "osm_type": "way",
            "osm_id": 41971687,
            "boundingbox": [
                "51.331734",
                "51.3318983",
                "12.3943169",
                "12.3945559"
            ],
            "lat": "51.3318358",
            "lon": "12.3944677",
            "display_name": "Johannisallee, Zentrum-Südost, Mitte, Leipzig, Sachsen, 04103, Deutschland",
            "class": "highway",
            "type": "tertiary",
            "importance": 0.21000999999999995
        }
    },
    "Lindenauer": {
        "stauts": true,
        "lon": 12.9323137,
        "lat": 48.960856,
        "raw": {
            "place_id": 362322179,
            "licence": "Data © OpenStreetMap contributors, ODbL 1.0. https://osm.org/copyright",
            "osm_type": "node",
            "osm_id": 10805617737,
            "boundingbox": [
                "48.960806",
                "48.960906",
                "12.9322637",
                "12.9323637"
            ],
            "lat": "48.960856",
            "lon": "12.9323137",
            "display_name": "Lindenauer Berg, Achslach, Ruhmannsfelden (VGem), Landkreis Regen, Bayern, 94250, Deutschland",
            "class": "natural",
            "type": "peak",
            "importance": 0.40001,
            "icon": "https://nominatim.openstreetmap.org/ui/mapicons/poi_peak.p.20.png"
        }
    },
    "Frankfurt": {
        "stauts": true,
        "lon": 8.6820917,
        "lat": 50.1106444,
        "raw": {
            "place_id": 367970474,
            "licence": "Data © OpenStreetMap contributors, ODbL 1.0. https://osm.org/copyright",
            "osm_type": "relation",
            "osm_id": 62400,
            "boundingbox": [
                "50.0153529",
                "50.2271424",
                "8.4727605",
                "8.8004049"
            ],
            "lat": "50.1106444",
            "lon": "8.6820917",
            "display_name": "Frankfurt am Main, Hessen, Deutschland",
            "class": "boundary",
            "type": "administrative",
            "importance": 0.7941325622496302,
            "icon": "https://nominatim.openstreetmap.org/ui/mapicons/poi_boundary_administrative.p.20.png"
        }
    },
    "Lene Park": {
        "stauts": true,
        "lon": 13.222429013300024,
        "lat": 55.72240545,
        "raw": {
            "place_id": 363727251,
            "licence": "Data © OpenStreetMap contributors, ODbL 1.0. https://osm.org/copyright",
            "osm_type": "way",
            "osm_id": 1164885847,
            "boundingbox": [
                "55.721725",
                "55.7231237",
                "13.2218244",
                "13.2229991"
            ],
            "lat": "55.72240545",
            "lon": "13.222429013300024",
            "display_name": "Park, Norr, Lund, Lunds kommun, Skåne län, Sverige",
            "class": "landuse",
            "type": "residential",
            "importance": 0.3100099999999999
        }
    },
    "Haus in der Karl-Heine-Straße": {
        "stauts": false,
        "lon": 0.0,
        "lat": 0.0,
        "raw": {}
    },
    "Ukraine": {
        "stauts": true,
        "lon": 31.2718321,
        "lat": 49.4871968,
        "raw": {
            "place_id": 297945654,
            "licence": "Data © OpenStreetMap contributors, ODbL 1.0. https://osm.org/copyright",
            "osm_type": "relation",
            "osm_id": 60199,
            "boundingbox": [
                "44.184598",
                "52.3797464",
                "22.137059",
                "40.2275801"
            ],
            "lat": "49.4871968",
            "lon": "31.2718321",
            "display_name": "Україна",
            "class": "boundary",
            "type": "administrative",
            "importance": 0.8164442439164168,
            "icon": "https://nominatim.openstreetmap.org/ui/mapicons/poi_boundary_administrative.p.20.png"
        }
    },
    "Volkmarsdorf": {
        "stauts": true,
        "lon": 12.4084617,
        "lat": 51.3436045,
        "raw": {
            "place_id": 21018796,
            "licence": "Data © OpenStreetMap contributors, ODbL 1.0. https://osm.org/copyright",
            "osm_type": "node",
            "osm_id": 2372128201,
            "boundingbox": [
                "51.3236045",
                "51.3636045",
                "12.3884617",
                "12.4284617"
            ],
            "lat": "51.3436045",
            "lon": "12.4084617",
            "display_name": "Volkmarsdorf, Ost, Leipzig, Sachsen, 04315, Deutschland",
            "class": "place",
            "type": "suburb",
            "importance": 0.4060833436228193,
            "icon": "https://nominatim.openstreetmap.org/ui/mapicons/poi_place_village.p.20.png"
        }
    },
    "doing": {
        "stauts": true,
        "lon": 4.511424719849101,
        "lat": 52.063039950000004,
        "raw": {
            "place_id": 147469842,
            "licence": "Data © OpenStreetMap contributors, ODbL 1.0. https://osm.org/copyright",
            "osm_type": "way",
            "osm_id": 175339021,
            "boundingbox": [
                "52.062834",
                "52.0632546",
                "4.5110817",
                "4.5118914"
            ],
            "lat": "52.063039950000004",
            "lon": "4.511424719849101",
            "display_name": "Doing, Forelsloot, Segwaert, Zoetermeer, Zuid-Holland, Nederland, 2724 CA, Nederland",
            "class": "leisure",
            "type": "sports_centre",
            "importance": 0.10000999999999996,
            "icon": "https://nominatim.openstreetmap.org/ui/mapicons/sport_leisure_centre.p.20.png"
        }
    },
    "Merseburgerstraße": {
        "stauts": true,
        "lon": 11.977899,
        "lat": 51.4062038,
        "raw": {
            "place_id": 111537811,
            "licence": "Data © OpenStreetMap contributors, ODbL 1.0. https://osm.org/copyright",
            "osm_type": "way",
            "osm_id": 25054712,
            "boundingbox": [
                "51.4062038",
                "51.4063322",
                "11.977899",
                "11.9781034"
            ],
            "lat": "51.4062038",
            "lon": "11.977899",
            "display_name": "Merseburger Straße, Planena, Halle (Saale), Sachsen-Anhalt, 06132, Deutschland",
            "class": "highway",
            "type": "trunk",
            "importance": 0.10000999999999993
        }
    },
    "Zeit am See": {
        "stauts": true,
        "lon": 16.9259865,
        "lat": 47.8370738,
        "raw": {
            "place_id": 2312487,
            "licence": "Data © OpenStreetMap contributors, ODbL 1.0. https://osm.org/copyright",
            "osm_type": "node",
            "osm_id": 356642749,
            "boundingbox": [
                "47.8370238",
                "47.8371238",
                "16.9259365",
                "16.9260365"
            ],
            "lat": "47.8370738",
            "lon": "16.9259865",
            "display_name": "Genuss und Zeit, 1a, Amtshausgasse, Frauenkirchen, Bezirk Neusiedl am See, Burgenland, 7132, Österreich",
            "class": "amenity",
            "type": "cafe",
            "importance": 0.30010000000000003,
            "icon": "https://nominatim.openstreetmap.org/ui/mapicons/food_cafe.p.20.png"
        }
    },
    "Argentinien": {
        "stauts": true,
        "lon": -64.9672817,
        "lat": -34.9964963,
        "raw": {
            "place_id": 298075504,
            "licence": "Data © OpenStreetMap contributors, ODbL 1.0. https://osm.org/copyright",
            "osm_type": "relation",
            "osm_id": 286393,
            "boundingbox": [
                "-55.1925709",
                "-21.7808568",
                "-73.5605371",
                "-53.6374515"
            ],
            "lat": "-34.9964963",
            "lon": "-64.9672817",
            "display_name": "Argentina",
            "class": "boundary",
            "type": "administrative",
            "importance": 0.8101041945616906,
            "icon": "https://nominatim.openstreetmap.org/ui/mapicons/poi_boundary_administrative.p.20.png"
        }
    },
    "UFZ": {
        "stauts": true,
        "lon": 61.26385124455457,
        "lat": 54.46429605,
        "raw": {
            "place_id": 128425889,
            "licence": "Data © OpenStreetMap contributors, ODbL 1.0. https://osm.org/copyright",
            "osm_type": "way",
            "osm_id": 102963616,
            "boundingbox": [
                "54.4621055",
                "54.4662186",
                "61.2599141",
                "61.2677682"
            ],
            "lat": "54.46429605",
            "lon": "61.26385124455457",
            "display_name": "«Уральский фарфор», Южноуральск, Южноуральский городской округ, Челябинская область, Уральский федеральный округ, Россия",
            "class": "landuse",
            "type": "industrial",
            "importance": 0.19999999999999996
        }
    },
    "Zoo": {
        "stauts": true,
        "lon": 9.772844456535518,
        "lat": 52.3856114,
        "raw": {
            "place_id": 298546271,
            "licence": "Data © OpenStreetMap contributors, ODbL 1.0. https://osm.org/copyright",
            "osm_type": "relation",
            "osm_id": 78662,
            "boundingbox": [
                "52.3724921",
                "52.3983249",
                "9.7514942",
                "9.7916261"
            ],
            "lat": "52.3856114",
            "lon": "9.772844456535518",
            "display_name": "Zoo, Mitte, Hannover, Region Hannover, Niedersachsen, 30175, Deutschland",
            "class": "boundary",
            "type": "administrative",
            "importance": 0.4158720222757677,
            "icon": "https://nominatim.openstreetmap.org/ui/mapicons/poi_boundary_administrative.p.20.png"
        }
    },
    "Dachterassebei 'nem Bierchen": {
        "stauts": false,
        "lon": 0.0,
        "lat": 0.0,
        "raw": {}
    },
    "Hildegardstraße": {
        "stauts": true,
        "lon": 13.3238032,
        "lat": 52.4817724,
        "raw": {
            "place_id": 347127236,
            "licence": "Data © OpenStreetMap contributors, ODbL 1.0. https://osm.org/copyright",
            "osm_type": "way",
            "osm_id": 1109690556,
            "boundingbox": [
                "52.4817704",
                "52.4817974",
                "13.3228294",
                "13.3240438"
            ],
            "lat": "52.4817724",
            "lon": "13.3238032",
            "display_name": "Hildegardstraße, Wilmersdorf, Charlottenburg-Wilmersdorf, Berlin, 10715, Deutschland",
            "class": "highway",
            "type": "residential",
            "importance": 0.21000999999999995
        }
    },
    "Tram 1": {
        "stauts": true,
        "lon": 109.3968143,
        "lat": 12.8909378,
        "raw": {
            "place_id": 67811478,
            "licence": "Data © OpenStreetMap contributors, ODbL 1.0. https://osm.org/copyright",
            "osm_type": "node",
            "osm_id": 6344224639,
            "boundingbox": [
                "12.8908878",
                "12.8909878",
                "109.3967643",
                "109.3968643"
            ],
            "lat": "12.8909378",
            "lon": "109.3968143",
            "display_name": "Trạm 1, Quốc lộ 29, Thị xã Đông Hòa, Tỉnh Phú Yên, Việt Nam",
            "class": "tourism",
            "type": "information",
            "importance": 0.10010000000000001,
            "icon": "https://nominatim.openstreetmap.org/ui/mapicons/amenity_information.p.20.png"
        }
    },
    "S-Bahnstation": {
        "stauts": true,
        "lon": 12.29465329662807,
        "lat": 51.389585800000006,
        "raw": {
            "place_id": 299848634,
            "licence": "Data © OpenStreetMap contributors, ODbL 1.0. https://osm.org/copyright",
            "osm_type": "relation",
            "osm_id": 13797870,
            "boundingbox": [
                "51.3890788",
                "51.3904019",
                "12.2923997",
                "12.2958973"
            ],
            "lat": "51.389585800000006",
            "lon": "12.29465329662807",
            "display_name": "S-Bahnstation, Lützschena-Stahmeln, Nordwest, Leipzig, Sachsen, Deutschland",
            "class": "landuse",
            "type": "railway",
            "importance": 0.4000099999999999
        }
    },
    "Stanni": {
        "stauts": false,
        "lon": 0.0,
        "lat": 0.0,
        "raw": {}
    },
    "Altlindenau": {
        "stauts": true,
        "lon": 12.3347023,
        "lat": 51.3400124,
        "raw": {
            "place_id": 338118433,
            "licence": "Data © OpenStreetMap contributors, ODbL 1.0. https://osm.org/copyright",
            "osm_type": "relation",
            "osm_id": 14347073,
            "boundingbox": [
                "51.3326998",
                "51.3501722",
                "12.3123102",
                "12.3458694"
            ],
            "lat": "51.3400124",
            "lon": "12.3347023",
            "display_name": "Altlindenau, Altwest, Leipzig, Sachsen, 04177, Deutschland",
            "class": "boundary",
            "type": "administrative",
            "importance": 0.38500999999999996,
            "icon": "https://nominatim.openstreetmap.org/ui/mapicons/poi_boundary_administrative.p.20.png"
        }
    },
    "Wilhelm-Leuschner Platz": {
        "stauts": true,
        "lon": 12.3743944,
        "lat": 51.3353085,
        "raw": {
            "place_id": 194498917,
            "licence": "Data © OpenStreetMap contributors, ODbL 1.0. https://osm.org/copyright",
            "osm_type": "way",
            "osm_id": 380114012,
            "boundingbox": [
                "51.3345217",
                "51.3353584",
                "12.3742116",
                "12.3744072"
            ],
            "lat": "51.3353085",
            "lon": "12.3743944",
            "display_name": "Wilhelm-Leuschner-Platz, Zentrum-Süd, Mitte, Leipzig, Sachsen, 04107, Deutschland",
            "class": "highway",
            "type": "secondary",
            "importance": 0.40001
        }
    },
    "Whatsapp": {
        "stauts": true,
        "lon": 15.3506945,
        "lat": -4.3463163,
        "raw": {
            "place_id": 66348907,
            "licence": "Data © OpenStreetMap contributors, ODbL 1.0. https://osm.org/copyright",
            "osm_type": "node",
            "osm_id": 6115682396,
            "boundingbox": [
                "-4.3463663",
                "-4.3462663",
                "15.3506445",
                "15.3507445"
            ],
            "lat": "-4.3463163",
            "lon": "15.3506945",
            "display_name": "Whatsapp, Avenue Lumumba, Maman Nzenze, Kingabwa, Limete, Mbamu, Limete, Kinshasa, République démocratique du Congo",
            "class": "amenity",
            "type": "bar",
            "importance": 0.11010000000000002,
            "icon": "https://nominatim.openstreetmap.org/ui/mapicons/food_bar.p.20.png"
        }
    },
    "Neustadt-Neuschönefeld": {
        "stauts": true,
        "lon": 12.3996943,
        "lat": 51.3451592,
        "raw": {
            "place_id": 1340905,
            "licence": "Data © OpenStreetMap contributors, ODbL 1.0. https://osm.org/copyright",
            "osm_type": "node",
            "osm_id": 332308133,
            "boundingbox": [
                "51.3251592",
                "51.3651592",
                "12.3796943",
                "12.4196943"
            ],
            "lat": "51.3451592",
            "lon": "12.3996943",
            "display_name": "Neustadt-Neuschönefeld, Ost, Leipzig, Sachsen, 04315, Deutschland",
            "class": "place",
            "type": "suburb",
            "importance": 0.40080430702544845,
            "icon": "https://nominatim.openstreetmap.org/ui/mapicons/poi_place_village.p.20.png"
        }
    },
    "The apartment": {
        "stauts": true,
        "lon": 12.5137816,
        "lat": 41.9001107,
        "raw": {
            "place_id": 44627075,
            "licence": "Data © OpenStreetMap contributors, ODbL 1.0. https://osm.org/copyright",
            "osm_type": "node",
            "osm_id": 3790634219,
            "boundingbox": [
                "41.9000607",
                "41.9001607",
                "12.5137316",
                "12.5138316"
            ],
            "lat": "41.9001107",
            "lon": "12.5137816",
            "display_name": "The Apartment, 1, Via dei Marrucini, San Lorenzo, Municipio Roma II, Roma, Roma Capitale, Lazio, 00185, Italia",
            "class": "amenity",
            "type": "bar",
            "importance": 0.2001,
            "icon": "https://nominatim.openstreetmap.org/ui/mapicons/food_bar.p.20.png"
        }
    },
    "Gohlis": {
        "stauts": true,
        "lon": 12.3766732,
        "lat": 51.36706,
        "raw": {
            "place_id": 1213541,
            "licence": "Data © OpenStreetMap contributors, ODbL 1.0. https://osm.org/copyright",
            "osm_type": "node",
            "osm_id": 313035119,
            "boundingbox": [
                "51.34706",
                "51.38706",
                "12.3566732",
                "12.3966732"
            ],
            "lat": "51.36706",
            "lon": "12.3766732",
            "display_name": "Gohlis, Gohlis-Mitte, Nord, Leipzig, Sachsen, 04157, Deutschland",
            "class": "place",
            "type": "suburb",
            "importance": 0.385,
            "icon": "https://nominatim.openstreetmap.org/ui/mapicons/poi_place_village.p.20.png"
        }
    },
    "Stötteritz": {
        "stauts": true,
        "lon": 12.4184272,
        "lat": 51.3197377,
        "raw": {
            "place_id": 15192960,
            "licence": "Data © OpenStreetMap contributors, ODbL 1.0. https://osm.org/copyright",
            "osm_type": "node",
            "osm_id": 1693790631,
            "boundingbox": [
                "51.2997377",
                "51.3397377",
                "12.3984272",
                "12.4384272"
            ],
            "lat": "51.3197377",
            "lon": "12.4184272",
            "display_name": "Stötteritz, Südost, Leipzig, Sachsen, 04299, Deutschland",
            "class": "place",
            "type": "suburb",
            "importance": 0.38500999999999996,
            "icon": "https://nominatim.openstreetmap.org/ui/mapicons/poi_place_village.p.20.png"
        }
    },
    "Wäscheständern": {
        "stauts": false,
        "lon": 0.0,
        "lat": 0.0,
        "raw": {}
    },
    "Clara Park": {
        "stauts": true,
        "lon": -111.23090592426617,
        "lat": 47.4954119,
        "raw": {
            "place_id": 140617106,
            "licence": "Data © OpenStreetMap contributors, ODbL 1.0. https://osm.org/copyright",
            "osm_type": "way",
            "osm_id": 152068628,
            "boundingbox": [
                "47.4943965",
                "47.4960456",
                "-111.2331397",
                "-111.2295576"
            ],
            "lat": "47.4954119",
            "lon": "-111.23090592426617",
            "display_name": "Clara Park, Great Falls, Cascade County, Montana, United States",
            "class": "leisure",
            "type": "park",
            "importance": 0.35001
        }
    },
    "Disko": {
        "stauts": true,
        "lon": -85.944436,
        "lat": 41.0022659,
        "raw": {
            "place_id": 361221,
            "licence": "Data © OpenStreetMap contributors, ODbL 1.0. https://osm.org/copyright",
            "osm_type": "node",
            "osm_id": 153480445,
            "boundingbox": [
                "40.9822659",
                "41.0222659",
                "-85.964436",
                "-85.924436"
            ],
            "lat": "41.0022659",
            "lon": "-85.944436",
            "display_name": "Disko, Wabash County, Indiana, United States",
            "class": "place",
            "type": "hamlet",
            "importance": 0.3785144183561604,
            "icon": "https://nominatim.openstreetmap.org/ui/mapicons/poi_place_village.p.20.png"
        }
    },
    "Plagwitz": {
        "stauts": true,
        "lon": 12.3382998,
        "lat": 51.3281994,
        "raw": {
            "place_id": 352194070,
            "licence": "Data © OpenStreetMap contributors, ODbL 1.0. https://osm.org/copyright",
            "osm_type": "relation",
            "osm_id": 15069464,
            "boundingbox": [
                "51.3183448",
                "51.3324037",
                "12.3192513",
                "12.349132"
            ],
            "lat": "51.3281994",
            "lon": "12.3382998",
            "display_name": "Plagwitz, Südwest, Leipzig, Sachsen, 04229, Deutschland",
            "class": "boundary",
            "type": "administrative",
            "importance": 0.38500999999999996,
            "icon": "https://nominatim.openstreetmap.org/ui/mapicons/poi_boundary_administrative.p.20.png"
        }
    },
    "Hauptbahhof": {
        "stauts": false,
        "lon": 0.0,
        "lat": 0.0,
        "raw": {}
    },
    "leipzig": {
        "stauts": true,
        "lon": 12.3747329,
        "lat": 51.3406321,
        "raw": {
            "place_id": 297922387,
            "licence": "Data © OpenStreetMap contributors, ODbL 1.0. https://osm.org/copyright",
            "osm_type": "relation",
            "osm_id": 62649,
            "boundingbox": [
                "51.2381704",
                "51.4481145",
                "12.2366519",
                "12.5425373"
            ],
            "lat": "51.3406321",
            "lon": "12.3747329",
            "display_name": "Leipzig, Sachsen, Deutschland",
            "class": "boundary",
            "type": "administrative",
            "importance": 0.7936141721815995,
            "icon": "https://nominatim.openstreetmap.org/ui/mapicons/poi_boundary_administrative.p.20.png"
        }
    },
    "Zittauer Zoo": {
        "stauts": true,
        "lon": 14.9785816,
        "lat": 51.1420598,
        "raw": {
            "place_id": 776785,
            "licence": "Data © OpenStreetMap contributors, ODbL 1.0. https://osm.org/copyright",
            "osm_type": "node",
            "osm_id": 279107385,
            "boundingbox": [
                "51.1420098",
                "51.1421098",
                "14.9785316",
                "14.9786316"
            ],
            "lat": "51.1420598",
            "lon": "14.9785816",
            "display_name": "Naturschutz-Tierpark Görlitz, 43, Zittauer Straße, Südstadt, Görlitz, Görlitz - Zhorjelc, Sachsen, 02826, Deutschland",
            "class": "tourism",
            "type": "zoo",
            "importance": 0.37868867945862394,
            "icon": "https://nominatim.openstreetmap.org/ui/mapicons/tourist_zoo.p.20.png"
        }
    },
    "A14": {
        "stauts": true,
        "lon": 13.0079208,
        "lat": 43.8168369,
        "raw": {
            "place_id": 196709544,
            "licence": "Data © OpenStreetMap contributors, ODbL 1.0. https://osm.org/copyright",
            "osm_type": "way",
            "osm_id": 392107979,
            "boundingbox": [
                "43.8144248",
                "43.8223668",
                "13.000223",
                "13.017182"
            ],
            "lat": "43.8168369",
            "lon": "13.0079208",
            "display_name": "Autostrada Adriatica, Sant'Orso, Tre Ponti, Rosciano, Fano, Pesaro e Urbino, Marche, 61032, Italia",
            "class": "highway",
            "type": "motorway",
            "importance": 0.44247797599453187
        }
    },
    "Kolonnadenstraße": {
        "stauts": true,
        "lon": 12.364272,
        "lat": 51.3379292,
        "raw": {
            "place_id": 99660866,
            "licence": "Data © OpenStreetMap contributors, ODbL 1.0. https://osm.org/copyright",
            "osm_type": "way",
            "osm_id": 4362243,
            "boundingbox": [
                "51.3379216",
                "51.3379317",
                "12.3641276",
                "12.3643529"
            ],
            "lat": "51.3379292",
            "lon": "12.364272",
            "display_name": "Kolonnadenstraße, Bachviertel, Zentrum-West, Mitte, Leipzig, Sachsen, 04109, Deutschland",
            "class": "highway",
            "type": "residential",
            "importance": 0.21000999999999995
        }
    },
    "Similarly": {
        "stauts": false,
        "lon": 0.0,
        "lat": 0.0,
        "raw": {}
    },
    "Kitchens": {
        "stauts": true,
        "lon": -87.5697416,
        "lat": 35.4809083,
        "raw": {
            "place_id": 362959,
            "licence": "Data © OpenStreetMap contributors, ODbL 1.0. https://osm.org/copyright",
            "osm_type": "node",
            "osm_id": 153558420,
            "boundingbox": [
                "35.4609083",
                "35.5009083",
                "-87.5897416",
                "-87.5497416"
            ],
            "lat": "35.4809083",
            "lon": "-87.5697416",
            "display_name": "Kitchens, Lewis County, Tennessee, United States",
            "class": "place",
            "type": "hamlet",
            "importance": 0.36,
            "icon": "https://nominatim.openstreetmap.org/ui/mapicons/poi_place_village.p.20.png"
        }
    },
    "ihrdann": {
        "stauts": false,
        "lon": 0.0,
        "lat": 0.0,
        "raw": {}
    },
    "Restaurantsgeprägt": {
        "stauts": false,
        "lon": 0.0,
        "lat": 0.0,
        "raw": {}
    },
    "Südplagwitz": {
        "stauts": false,
        "lon": 0.0,
        "lat": 0.0,
        "raw": {}
    },
    "Uni": {
        "stauts": true,
        "lon": -83.3676859,
        "lat": 40.3255937,
        "raw": {
            "place_id": 298034133,
            "licence": "Data © OpenStreetMap contributors, ODbL 1.0. https://osm.org/copyright",
            "osm_type": "relation",
            "osm_id": 178021,
            "boundingbox": [
                "40.1069615",
                "40.5071313",
                "-83.551329",
                "-83.1698499"
            ],
            "lat": "40.3255937",
            "lon": "-83.3676859",
            "display_name": "Union County, Ohio, United States",
            "class": "boundary",
            "type": "administrative",
            "importance": 0.6170143384772322,
            "icon": "https://nominatim.openstreetmap.org/ui/mapicons/poi_boundary_administrative.p.20.png"
        }
    },
    "Ferdinand-Rhode-Straße": {
        "stauts": true,
        "lon": 12.3680731,
        "lat": 51.3264632,
        "raw": {
            "place_id": 365452034,
            "licence": "Data © OpenStreetMap contributors, ODbL 1.0. https://osm.org/copyright",
            "osm_type": "way",
            "osm_id": 1172169194,
            "boundingbox": [
                "51.3263583",
                "51.3265102",
                "12.367999",
                "12.3682901"
            ],
            "lat": "51.3264632",
            "lon": "12.3680731",
            "display_name": "Ferdinand-Rhode-Straße, Musikviertel, Zentrum-Süd, Mitte, Leipzig, Sachsen, 04107, Deutschland",
            "class": "highway",
            "type": "residential",
            "importance": 0.40001
        }
    },
    "Verschwörungstheoretikerinnen": {
        "stauts": false,
        "lon": 0.0,
        "lat": 0.0,
        "raw": {}
    },
    "kitchen": {
        "stauts": true,
        "lon": -82.0344275,
        "lat": 37.9817007,
        "raw": {
            "place_id": 382571,
            "licence": "Data © OpenStreetMap contributors, ODbL 1.0. https://osm.org/copyright",
            "osm_type": "node",
            "osm_id": 153966184,
            "boundingbox": [
                "37.9617007",
                "38.0017007",
                "-82.0544275",
                "-82.0144275"
            ],
            "lat": "37.9817007",
            "lon": "-82.0344275",
            "display_name": "Kitchen, Logan County, West Virginia, 25505, United States",
            "class": "place",
            "type": "hamlet",
            "importance": 0.4071516336244855,
            "icon": "https://nominatim.openstreetmap.org/ui/mapicons/poi_place_village.p.20.png"
        }
    },
    "Rosenthal": {
        "stauts": true,
        "lon": 8.8694202,
        "lat": 50.9737599,
        "raw": {
            "place_id": 299246591,
            "licence": "Data © OpenStreetMap contributors, ODbL 1.0. https://osm.org/copyright",
            "osm_type": "relation",
            "osm_id": 8793129,
            "boundingbox": [
                "50.9520332",
                "51.0019679",
                "8.7763268",
                "8.9192464"
            ],
            "lat": "50.9737599",
            "lon": "8.8694202",
            "display_name": "Rosenthal, Landkreis Waldeck-Frankenberg, Hessen, 35119, Deutschland",
            "class": "boundary",
            "type": "administrative",
            "importance": 0.5233600180657737,
            "icon": "https://nominatim.openstreetmap.org/ui/mapicons/poi_boundary_administrative.p.20.png"
        }
    },
    "Denkmalschutzes": {
        "stauts": false,
        "lon": 0.0,
        "lat": 0.0,
        "raw": {}
    },
    "Alleinewohnens": {
        "stauts": false,
        "lon": 0.0,
        "lat": 0.0,
        "raw": {}
    },
    "Moody": {
        "stauts": true,
        "lon": -96.6671385,
        "lat": 43.998215,
        "raw": {
            "place_id": 298759547,
            "licence": "Data © OpenStreetMap contributors, ODbL 1.0. https://osm.org/copyright",
            "osm_type": "relation",
            "osm_id": 1739841,
            "boundingbox": [
                "43.8475139",
                "44.19678",
                "-96.8892402",
                "-96.452773"
            ],
            "lat": "43.998215",
            "lon": "-96.6671385",
            "display_name": "Moody County, South Dakota, United States",
            "class": "boundary",
            "type": "administrative",
            "importance": 0.5701038621059398,
            "icon": "https://nominatim.openstreetmap.org/ui/mapicons/poi_boundary_administrative.p.20.png"
        }
    },
    "Wg-Leben": {
        "stauts": true,
        "lon": 6.0841274,
        "lat": 50.634714,
        "raw": {
            "place_id": 61486723,
            "licence": "Data © OpenStreetMap contributors, ODbL 1.0. https://osm.org/copyright",
            "osm_type": "node",
            "osm_id": 5583910941,
            "boundingbox": [
                "50.634664",
                "50.634764",
                "6.0840774",
                "6.0841774"
            ],
            "lat": "50.634714",
            "lon": "6.0841274",
            "display_name": "Leben am und im Weiher, Schönefelderweg, Eupen (Altgemeinde), Eupen, Verviers, Liège, Wallonie, 4700, België / Belgique / Belgien",
            "class": "tourism",
            "type": "information",
            "importance": 0.10000999999999996,
            "icon": "https://nominatim.openstreetmap.org/ui/mapicons/amenity_information.p.20.png"
        }
    },
    "And Auwald as well as Clara-Zetkin-Park": {
        "stauts": false,
        "lon": 0.0,
        "lat": 0.0,
        "raw": {}
    },
    "Höfe am Brühl": {
        "stauts": true,
        "lon": 12.373734960852833,
        "lat": 51.343525549999995,
        "raw": {
            "place_id": 298484158,
            "licence": "Data © OpenStreetMap contributors, ODbL 1.0. https://osm.org/copyright",
            "osm_type": "relation",
            "osm_id": 2773308,
            "boundingbox": [
                "51.3431198",
                "51.3439001",
                "12.3724939",
                "12.3768129"
            ],
            "lat": "51.343525549999995",
            "lon": "12.373734960852833",
            "display_name": "Höfe am Brühl, 1, Brühl, Zentrum, Mitte, Leipzig, Sachsen, 04109, Deutschland",
            "class": "shop",
            "type": "mall",
            "importance": 0.5254981504372134
        }
    },
    "Südplatz": {
        "stauts": true,
        "lon": 12.373672483961474,
        "lat": 51.2777287,
        "raw": {
            "place_id": 298936477,
            "licence": "Data © OpenStreetMap contributors, ODbL 1.0. https://osm.org/copyright",
            "osm_type": "relation",
            "osm_id": 6260256,
            "boundingbox": [
                "51.2774403",
                "51.2780391",
                "12.3731781",
                "12.3741929"
            ],
            "lat": "51.2777287",
            "lon": "12.373672483961474",
            "display_name": "Südplatz, Oetzsch, Markkleeberg-Mitte, Markkleeberg, Landkreis Leipzig, Sachsen, 04416, Deutschland",
            "class": "leisure",
            "type": "park",
            "importance": 0.26
        }
    },
    "Gohlis-Süd": {
        "stauts": true,
        "lon": 12.359288228937256,
        "lat": 51.3606724,
        "raw": {
            "place_id": 298821899,
            "licence": "Data © OpenStreetMap contributors, ODbL 1.0. https://osm.org/copyright",
            "osm_type": "relation",
            "osm_id": 5654276,
            "boundingbox": [
                "51.3543358",
                "51.3670587",
                "12.3408073",
                "12.3783074"
            ],
            "lat": "51.3606724",
            "lon": "12.359288228937256",
            "display_name": "Gohlis-Süd, Nord, Leipzig, Sachsen, 04155, Deutschland",
            "class": "boundary",
            "type": "administrative",
            "importance": 0.5572249460811545,
            "icon": "https://nominatim.openstreetmap.org/ui/mapicons/poi_boundary_administrative.p.20.png"
        }
    },
    "walk away": {
        "stauts": true,
        "lon": 4.4001733,
        "lat": 51.9153105,
        "raw": {
            "place_id": 351796838,
            "licence": "Data © OpenStreetMap contributors, ODbL 1.0. https://osm.org/copyright",
            "osm_type": "node",
            "osm_id": 10289746333,
            "boundingbox": [
                "51.9152605",
                "51.9153605",
                "4.4001233",
                "4.4002233"
            ],
            "lat": "51.9153105",
            "lon": "4.4001733",
            "display_name": "Walk Away, Nieuwe Passage, Schiedam, Zuid-Holland, Nederland, 3111 LD, Nederland",
            "class": "shop",
            "type": "shoes",
            "importance": 0.20000999999999997
        }
    },
    "Weiße Elster": {
        "stauts": true,
        "lon": 12.1652487,
        "lat": 50.412648,
        "raw": {
            "place_id": 260482604,
            "licence": "Data © OpenStreetMap contributors, ODbL 1.0. https://osm.org/copyright",
            "osm_type": "way",
            "osm_id": 794561631,
            "boundingbox": [
                "50.4125149",
                "50.4133399",
                "12.1644952",
                "12.1659577"
            ],
            "lat": "50.412648",
            "lon": "12.1652487",
            "display_name": "Weiße Elster, Raschau, Oelsnitz, Oelsnitz/Vogtland, Verwaltungsgemeinschaft Oelsnitz/Vogtl., Vogtlandkreis, Sachsen, 08606, Deutschland",
            "class": "waterway",
            "type": "river",
            "importance": 0.6165891203021141
        }
    },
    "Luppe": {
        "stauts": true,
        "lon": 12.0887525,
        "lat": 51.3651646,
        "raw": {
            "place_id": 298118358,
            "licence": "Data © OpenStreetMap contributors, ODbL 1.0. https://osm.org/copyright",
            "osm_type": "relation",
            "osm_id": 387343,
            "boundingbox": [
                "51.3598934",
                "51.3907785",
                "11.9950484",
                "12.2073797"
            ],
            "lat": "51.3651646",
            "lon": "12.0887525",
            "display_name": "Luppe, Saalekreis, Sachsen-Anhalt, Deutschland",
            "class": "waterway",
            "type": "river",
            "importance": 0.3777191505560489
        }
    },
    "Gemüseläden": {
        "stauts": true,
        "lon": 11.5785584,
        "lat": 48.1217841,
        "raw": {
            "place_id": 43399866,
            "licence": "Data © OpenStreetMap contributors, ODbL 1.0. https://osm.org/copyright",
            "osm_type": "node",
            "osm_id": 3583689850,
            "boundingbox": [
                "48.1217341",
                "48.1218341",
                "11.5785084",
                "11.5786084"
            ],
            "lat": "48.1217841",
            "lon": "11.5785584",
            "display_name": "gemüseladen, 34, Falkenstraße, Untere Au, Au-Haidhausen, München, Bayern, 81541, Deutschland",
            "class": "shop",
            "type": "hairdresser",
            "importance": 0.0001,
            "icon": "https://nominatim.openstreetmap.org/ui/mapicons/shopping_hairdresser.p.20.png"
        }
    },
    "Bad": {
        "stauts": true,
        "lon": 39.4636974,
        "lat": 15.6031828,
        "raw": {
            "place_id": 837923,
            "licence": "Data © OpenStreetMap contributors, ODbL 1.0. https://osm.org/copyright",
            "osm_type": "node",
            "osm_id": 288517213,
            "boundingbox": [
                "15.5631828",
                "15.6431828",
                "39.4236974",
                "39.5036974"
            ],
            "lat": "15.6031828",
            "lon": "39.4636974",
            "display_name": "ምጽዋዕ Massawa مصوع, ዞባ ሰሜናዊ ቀይሕ ባሕሪ Northern Red Sea شمال البحر الأحمر, ኤርትራ Eritrea إرتريا",
            "class": "place",
            "type": "town",
            "importance": 0.4757758670914882,
            "icon": "https://nominatim.openstreetmap.org/ui/mapicons/poi_place_town.p.20.png"
        }
    },
    "A 10": {
        "stauts": true,
        "lon": 0.2997169,
        "lat": 46.5893992,
        "raw": {
            "place_id": 122148654,
            "licence": "Data © OpenStreetMap contributors, ODbL 1.0. https://osm.org/copyright",
            "osm_type": "way",
            "osm_id": 64537095,
            "boundingbox": [
                "46.5734302",
                "46.6020261",
                "0.2896388",
                "0.3145788"
            ],
            "lat": "46.5893992",
            "lon": "0.2997169",
            "display_name": "L'Aquitaine, Biard, Poitiers, Vienne, Nouvelle-Aquitaine, France métropolitaine, 86580, France",
            "class": "highway",
            "type": "motorway",
            "importance": 0.5334918806285772
        }
    },
    "Fastfood Buden": {
        "stauts": false,
        "lon": 0.0,
        "lat": 0.0,
        "raw": {}
    },
    "Penny": {
        "stauts": true,
        "lon": -82.5615428,
        "lat": 37.3592706,
        "raw": {
            "place_id": 409631,
            "licence": "Data © OpenStreetMap contributors, ODbL 1.0. https://osm.org/copyright",
            "osm_type": "node",
            "osm_id": 154206753,
            "boundingbox": [
                "37.3392706",
                "37.3792706",
                "-82.5815428",
                "-82.5415428"
            ],
            "lat": "37.3592706",
            "lon": "-82.5615428",
            "display_name": "Penny, Pike County, Kentucky, 41560, United States",
            "class": "place",
            "type": "hamlet",
            "importance": 0.3880150946188139,
            "icon": "https://nominatim.openstreetmap.org/ui/mapicons/poi_place_village.p.20.png"
        }
    },
    "wardrobe": {
        "stauts": true,
        "lon": -122.0096218,
        "lat": 47.3485105,
        "raw": {
            "place_id": 199035199,
            "licence": "Data © OpenStreetMap contributors, ODbL 1.0. https://osm.org/copyright",
            "osm_type": "way",
            "osm_id": 405237783,
            "boundingbox": [
                "47.3481361",
                "47.3485323",
                "-122.0103782",
                "-122.0088574"
            ],
            "lat": "47.3485105",
            "lon": "-122.0096218",
            "display_name": "Wardrobe, Henrys, King County, Washington, 98010, United States",
            "class": "highway",
            "type": "path",
            "importance": 0.17500999999999992
        }
    },
    "S3": {
        "stauts": true,
        "lon": 9.483991083460063,
        "lat": 55.4640171,
        "raw": {
            "place_id": 121868667,
            "licence": "Data © OpenStreetMap contributors, ODbL 1.0. https://osm.org/copyright",
            "osm_type": "way",
            "osm_id": 61680530,
            "boundingbox": [
                "55.4625912",
                "55.4655904",
                "9.4827581",
                "9.4863185"
            ],
            "lat": "55.4640171",
            "lon": "9.483991083460063",
            "display_name": "S3, Vonsild, Kolding, Kolding Kommune, Region Syddanmark, Danmark",
            "class": "landuse",
            "type": "industrial",
            "importance": 0.3100099999999999
        }
    },
    "shopping facilities such as Edeka and Aldi": {
        "stauts": false,
        "lon": 0.0,
        "lat": 0.0,
        "raw": {}
    },